{
  "type": "FeatureCollection",
  "features": [
    {
      "type": "Feature",
      "properties": {
        "id": "agi-jetty",
        "code": "AGI",
        "name": "AGI – Al Ghallan Island (Jetty 대표)",
        "category": "HVDC_SITE",
        "summary": "HVDC Site · Jetty (rep.)"
      },
      "geometry": {
        "type": "Point",
        "coordinates": [
          53.658619,
          24.841096
        ]
      }
    },
    {
      "type": "Feature",
      "properties": {
        "id": "das-island",
        "code": "DAS",
        "name": "DAS – Das Island(섬 중심)",
        "category": "HVDC_SITE",
        "summary": "HVDC Site · Island"
      },
      "geometry": {
        "type": "Point",
        "coordinates": [
          52.875,
          25.1477
        ]
      }
    },
    {
      "type": "Feature",
      "properties": {
        "id": "mirfa-iwpp",
        "code": "MIR",
        "name": "MIR – Mirfa IWPP(플랜트)",
        "category": "HVDC_SITE",
        "summary": "HVDC Site · IWPP"
      },
      "geometry": {
        "type": "Point",
        "coordinates": [
          53.44436,
          24.11885
        ]
      }
    },
    {
      "type": "Feature",
      "properties": {
        "id": "shuweihat-complex",
        "code": "SHU",
        "name": "SHU – Shuweihat Complex(단지 중심)",
        "category": "HVDC_SITE",
        "summary": "HVDC Site · Complex"
      },
      "geometry": {
        "type": "Point",
        "coordinates": [
          52.57292,
          24.16017
        ]
      }
    },
    {
      "type": "Feature",
      "properties": {
        "id": "dsv-mussafah-office-m19",
        "code": "DSV-M19",
        "name": "DSV Mussafah 사무실(M-19)",
        "category": "OFFICE",
        "summary": "Office · DSV (M-19)"
      },
      "geometry": {
        "type": "Point",
        "coordinates": [
          54.476102,
          24.366698
        ]
      }
    },
    {
      "type": "Feature",
      "properties": {
        "id": "dsv-mussafah-warehouse-m44",
        "code": "DSV-M44",
        "name": "DSV M-44 Inland Warehouse(대표)",
        "category": "WAREHOUSE",
        "summary": "Warehouse · DSV (M-44)"
      },
      "geometry": {
        "type": "Point",
        "coordinates": [
          54.58183,
          24.3447
        ]
      }
    },
    {
      "type": "Feature",
      "properties": {
        "id": "mosb-esnaad",
        "code": "MOSB",
        "name": "MOSB – Mussafah Offshore Support Base(ESNAAD)",
        "category": "YARD",
        "summary": "Yard · MOSB (ESNAAD)"
      },
      "geometry": {
        "type": "Point",
        "coordinates": [
          54.46685,
          24.32479
        ]
      }
    },
    {
      "type": "Feature",
      "properties": {
        "id": "zayed-port",
        "code": "MZP",
        "name": "Mina Zayed Port(대표)",
        "category": "PORT",
        "summary": "Port · Zayed"
      },
      "geometry": {
        "type": "Point",
        "coordinates": [
          54.37798,
          24.52489
        ]
      }
    },
    {
      "type": "Feature",
      "properties": {
        "id": "khalifa-port-kpct",
        "code": "KPP",
        "name": "Khalifa Port – KPCT",
        "category": "PORT",
        "summary": "Port · Khalifa (KPCT)"
      },
      "geometry": {
        "type": "Point",
        "coordinates": [
          54.64842,
          24.8095
        ]
      }
    },
    {
      "type": "Feature",
      "properties": {
        "id": "auh-airport",
        "code": "AUH",
        "name": "Abu Dhabi(Zayed) International Airport – AUH",
        "category": "AIRPORT",
        "summary": "Airport · AUH"
      },
      "geometry": {
        "type": "Point",
        "coordinates": [
          54.6492,
          24.441
        ]
      }
    }
  ]
}
